{
"type": "FeatureCollection",
"features": [
{ "type": "Feature", "id": 0, "properties": { "NAME": "Macomb Recreation Center", "ADDRESS": "3409 Macomb St., NW", "USE_TYPE": "RECREATION CENTER", "WARD_ID": "3", "SCHOOL_SIT": "no", "POOL": "none", "POOL_NAME": "none", "CHILD_CARE": "", "SENIOR_SER": "", "WEB_URL": "http:\/\/app.dpr.dc.gov\/dprmap\/details.asp?cid=11", "PHONE": "(202) 282-2199", "STATUS": "Open" }, "geometry": { "type": "Point", "coordinates": [ -77.067013, 38.933681 ] } }
,
{ "type": "Feature", "id": 1, "properties": { "NAME": "Volta Park Recreation Center", "ADDRESS": "1555 34th St., NW", "USE_TYPE": "RECREATION CENTER", "WARD_ID": "2", "SCHOOL_SIT": "no", "POOL": "outdoor", "POOL_NAME": "Volta Park Pool", "CHILD_CARE": "", "SENIOR_SER": "", "WEB_URL": "", "PHONE": "(202) 282-0380", "STATUS": "Open" }, "geometry": { "type": "Point", "coordinates": [ -77.066803, 38.910102 ] } }
,
{ "type": "Feature", "id": 2, "properties": { "NAME": "Hardy Recreation Center", "ADDRESS": "4500 Q St., NW", "USE_TYPE": "RECREATION CENTER", "WARD_ID": "3", "SCHOOL_SIT": "no", "POOL": "none", "POOL_NAME": "none", "CHILD_CARE": "", "SENIOR_SER": "", "WEB_URL": "http:\/\/app.dpr.dc.gov\/dprmap\/details.asp?cid=9", "PHONE": "(202) 282-2190", "STATUS": "Open" }, "geometry": { "type": "Point", "coordinates": [ -77.084981, 38.909902 ] } }
,
{ "type": "Feature", "id": 3, "properties": { "NAME": "Kennedy Recreation Center", "ADDRESS": "1401 7th St., NW", "USE_TYPE": "RECREATION CENTER", "WARD_ID": "2", "SCHOOL_SIT": "no", "POOL": "none", "POOL_NAME": "none", "CHILD_CARE": "", "SENIOR_SER": "", "WEB_URL": "", "PHONE": "(202) 671-4794", "STATUS": "Open" }, "geometry": { "type": "Point", "coordinates": [ -77.021539, 38.908978 ] } }
,
{ "type": "Feature", "id": 4, "properties": { "NAME": "Oxon Run Recreation Center", "ADDRESS": "4th St and Mississippi Ave SE", "USE_TYPE": "RECREATION CENTER", "WARD_ID": "8", "SCHOOL_SIT": "no", "POOL": "outdoor + child", "POOL_NAME": "Oxon Run Pool", "CHILD_CARE": "", "SENIOR_SER": "", "WEB_URL": "", "PHONE": "(202) 645-3960", "STATUS": "Open" }, "geometry": { "type": "Point", "coordinates": [ -76.998785, 38.836581 ] } }
,
{ "type": "Feature", "id": 5, "properties": { "NAME": "Stead Recreation Center", "ADDRESS": "1625 P St., NW", "USE_TYPE": "RECREATION CENTER", "WARD_ID": "2", "SCHOOL_SIT": "no", "POOL": "none", "POOL_NAME": "none", "CHILD_CARE": "", "SENIOR_SER": "", "WEB_URL": "", "PHONE": "(202) 673-4465", "STATUS": "Open" }, "geometry": { "type": "Point", "coordinates": [ -77.037621, 38.910025 ] } }
,
{ "type": "Feature", "id": 6, "properties": { "NAME": "Fort Stevens Recreation Center", "ADDRESS": "1327 Van Buren St., NW", "USE_TYPE": "RECREATION CENTER", "WARD_ID": "4", "SCHOOL_SIT": "no", "POOL": "none", "POOL_NAME": "none", "CHILD_CARE": "", "SENIOR_SER": "", "WEB_URL": "", "PHONE": "(202) 541-3754", "STATUS": "Open" }, "geometry": { "type": "Point", "coordinates": [ -77.031063, 38.970266 ] } }
,
{ "type": "Feature", "id": 7, "properties": { "NAME": "Emery Recreation Center", "ADDRESS": "5801 Georgia Ave., NW", "USE_TYPE": "RECREATION CENTER", "WARD_ID": "4", "SCHOOL_SIT": "no", "POOL": "none", "POOL_NAME": "none", "CHILD_CARE": "", "SENIOR_SER": "", "WEB_URL": "", "PHONE": "(202) 576-3211", "STATUS": "Open" }, "geometry": { "type": "Point", "coordinates": [ -77.027876, 38.958817 ] } }
,
{ "type": "Feature", "id": 8, "properties": { "NAME": "Hamilton Recreation Center", "ADDRESS": "1340 Hamilton St., NW", "USE_TYPE": "RECREATION CENTER", "WARD_ID": "4", "SCHOOL_SIT": "no", "POOL": "none", "POOL_NAME": "none", "CHILD_CARE": "", "SENIOR_SER": "", "WEB_URL": "", "PHONE": "(202) 576-6855", "STATUS": "Open" }, "geometry": { "type": "Point", "coordinates": [ -77.031354, 38.952623 ] } }
,
{ "type": "Feature", "id": 9, "properties": { "NAME": "Lamond Recreation Center", "ADDRESS": "20 Tuckerman St., NE", "USE_TYPE": "RECREATION CENTER", "WARD_ID": "4", "SCHOOL_SIT": "no", "POOL": "none", "POOL_NAME": "none", "CHILD_CARE": "", "SENIOR_SER": "", "WEB_URL": "", "PHONE": "(202) 576-9541", "STATUS": "Open" }, "geometry": { "type": "Point", "coordinates": [ -77.008234, 38.967779 ] } }
,
{ "type": "Feature", "id": 10, "properties": { "NAME": "Petworth Recreation Center", "ADDRESS": "801 Taylor St., NW", "USE_TYPE": "RECREATION CENTER", "WARD_ID": "4", "SCHOOL_SIT": "no", "POOL": "none", "POOL_NAME": "none", "CHILD_CARE": "", "SENIOR_SER": "", "WEB_URL": "", "PHONE": "(202) 576-6850", "STATUS": "Open" }, "geometry": { "type": "Point", "coordinates": [ -77.024003, 38.941009 ] } }
,
{ "type": "Feature", "id": 11, "properties": { "NAME": "Takoma Community Center", "ADDRESS": "300 Van Buren St., NW", "USE_TYPE": "RECREATION CENTER", "WARD_ID": "4", "SCHOOL_SIT": "no", "POOL": "none", "POOL_NAME": "none", "CHILD_CARE": "", "SENIOR_SER": "", "WEB_URL": "", "PHONE": "(202) 576-7068", "STATUS": "Open" }, "geometry": { "type": "Point", "coordinates": [ -77.016830, 38.970131 ] } }
,
{ "type": "Feature", "id": 12, "properties": { "NAME": "Upshur Recreation Center", "ADDRESS": "4300 Arkansas Ave., NW", "USE_TYPE": "RECREATION CENTER", "WARD_ID": "4", "SCHOOL_SIT": "no", "POOL": "outdoor", "POOL_NAME": "Upshur Pool", "CHILD_CARE": "", "SENIOR_SER": "", "WEB_URL": "", "PHONE": "(202) 576-6842", "STATUS": "Open" }, "geometry": { "type": "Point", "coordinates": [ -77.032315, 38.943313 ] } }
,
{ "type": "Feature", "id": 13, "properties": { "NAME": "Arboretum Community Center", "ADDRESS": "2412 Rand Pl., NE", "USE_TYPE": "RECREATION CENTER", "WARD_ID": "5", "SCHOOL_SIT": "no", "POOL": "none", "POOL_NAME": "none", "CHILD_CARE": "", "SENIOR_SER": "", "WEB_URL": "http:\/\/app.dpr.dc.gov\/dprmap\/details.asp?cid=31", "PHONE": "(202) 673-4507", "STATUS": "Open" }, "geometry": { "type": "Point", "coordinates": [ -76.971169, 38.913716 ] } }
,
{ "type": "Feature", "id": 14, "properties": { "NAME": "Brentwood Recreation Center", "ADDRESS": "2311 14th St., NE", "USE_TYPE": "RECREATION CENTER", "WARD_ID": "5", "SCHOOL_SIT": "no", "POOL": "none", "POOL_NAME": "none", "CHILD_CARE": "", "SENIOR_SER": "", "WEB_URL": "http:\/\/app.dpr.dc.gov\/dprmap\/details.asp?cid=32", "PHONE": "(202) 576-6667", "STATUS": "Open" }, "geometry": { "type": "Point", "coordinates": [ -76.982917, 38.921040 ] } }
,
{ "type": "Feature", "id": 15, "properties": { "NAME": "Edgewood Recreation Center", "ADDRESS": "Third & Evarts Sts., NE", "USE_TYPE": "RECREATION CENTER", "WARD_ID": "5", "SCHOOL_SIT": "no", "POOL": "none", "POOL_NAME": "none", "CHILD_CARE": "", "SENIOR_SER": "", "WEB_URL": "", "PHONE": "(202) 529-0788", "STATUS": "Open" }, "geometry": { "type": "Point", "coordinates": [ -77.002027, 38.924724 ] } }
,
{ "type": "Feature", "id": 16, "properties": { "NAME": "Thurgood Marshall Recreation Center", "ADDRESS": "3100 Ft. Lincoln Dr., NE", "USE_TYPE": "RECREATION CENTER", "WARD_ID": "5", "SCHOOL_SIT": "Marshall Education Center", "POOL": "indoor", "POOL_NAME": "Thurgood Marshall Aquatic Center", "CHILD_CARE": "", "SENIOR_SER": "", "WEB_URL": "http:\/\/app.dpr.dc.gov\/dprmap\/details.asp?cid=37", "PHONE": "(202) 576-6818", "STATUS": "Open" }, "geometry": { "type": "Point", "coordinates": [ -76.957098, 38.927375 ] } }
,
{ "type": "Feature", "id": 17, "properties": { "NAME": "Langdon Park Community Center", "ADDRESS": "2901 20th St., NE", "USE_TYPE": "RECREATION CENTER", "WARD_ID": "5", "SCHOOL_SIT": "no", "POOL": "none", "POOL_NAME": "none", "CHILD_CARE": "", "SENIOR_SER": "", "WEB_URL": "http:\/\/app.dpr.dc.gov\/dprmap\/details.asp?cid=35", "PHONE": "(202) 576-6595", "STATUS": "Open" }, "geometry": { "type": "Point", "coordinates": [ -76.975759, 38.926812 ] } }
,
{ "type": "Feature", "id": 18, "properties": { "NAME": "North Michigan Park Recreation Center", "ADDRESS": "1333 Emerson St., NE", "USE_TYPE": "RECREATION CENTER", "WARD_ID": "5", "SCHOOL_SIT": "no", "POOL": "none", "POOL_NAME": "none", "CHILD_CARE": "", "SENIOR_SER": "", "WEB_URL": "http:\/\/app.dpr.dc.gov\/dprmap\/details.asp?cid=36", "PHONE": "(202) 541-3526", "STATUS": "Open" }, "geometry": { "type": "Point", "coordinates": [ -76.986382, 38.949961 ] } }
,
{ "type": "Feature", "id": 19, "properties": { "NAME": "Trinidad Recreation Center", "ADDRESS": "1310 Childress St., NE", "USE_TYPE": "RECREATION CENTER", "WARD_ID": "5", "SCHOOL_SIT": "no", "POOL": "none", "POOL_NAME": "none", "CHILD_CARE": "", "SENIOR_SER": "", "WEB_URL": "http:\/\/app.dpr.dc.gov\/dprmap\/details.asp?cid=38", "PHONE": "202) 727-1293 \/ 1294", "STATUS": "Open" }, "geometry": { "type": "Point", "coordinates": [ -76.982660, 38.906329 ] } }
,
{ "type": "Feature", "id": 20, "properties": { "NAME": "Turkey Thicket Recreation Center", "ADDRESS": "1100 Michigan Ave. NE", "USE_TYPE": "RECREATION CENTER", "WARD_ID": "5", "SCHOOL_SIT": "no", "POOL": "indoor", "POOL_NAME": "Turkey Thicket Aquatic Center", "CHILD_CARE": "", "SENIOR_SER": "", "WEB_URL": "http:\/\/app.dpr.dc.gov\/dprmap\/details.asp?cid=39", "PHONE": "(202) 576-9238", "STATUS": "Open" }, "geometry": { "type": "Point", "coordinates": [ -76.992600, 38.938064 ] } }
,
{ "type": "Feature", "id": 21, "properties": { "NAME": "Anacostia Recreation Center", "ADDRESS": "1800 Anacostia Dr., SE\r\n", "USE_TYPE": "RECREATION CENTER", "WARD_ID": "8", "SCHOOL_SIT": "Kenilworth Elementary School", "POOL": "outdoor", "POOL_NAME": "Anacostia Fitness Pool", "CHILD_CARE": "", "SENIOR_SER": "", "WEB_URL": "http:\/\/app.dpr.dc.gov\/dprmap\/details.asp?cid=45", "PHONE": "(202) 698-2250", "STATUS": "Open" }, "geometry": { "type": "Point", "coordinates": [ -76.983102, 38.872588 ] } }
,
{ "type": "Feature", "id": 22, "properties": { "NAME": "Fort Stanton Recreation Center", "ADDRESS": "1812 Erie St., SE", "USE_TYPE": "RECREATION CENTER", "WARD_ID": "8", "SCHOOL_SIT": "no", "POOL": "none", "POOL_NAME": "none", "CHILD_CARE": "", "SENIOR_SER": "", "WEB_URL": "http:\/\/app.dpr.dc.gov\/dprmap\/details.asp?cid=51", "PHONE": "(202) 645-3970", "STATUS": "Open" }, "geometry": { "type": "Point", "coordinates": [ -76.978910, 38.857655 ] } }
,
{ "type": "Feature", "id": 23, "properties": { "NAME": "Rosedale Recreation Center", "ADDRESS": "500 19th St NE", "USE_TYPE": "RECREATION CENTER", "WARD_ID": "6", "SCHOOL_SIT": "no", "POOL": "none", "POOL_NAME": "none", "CHILD_CARE": "", "SENIOR_SER": "", "WEB_URL": "http:\/\/app.dpr.dc.gov\/dprmap\/details.asp?cid=41", "PHONE": "(202) 258-6149", "STATUS": "Open" }, "geometry": { "type": "Point", "coordinates": [ -76.977546, 38.896718 ] } }
,
{ "type": "Feature", "id": 24, "properties": { "NAME": "Watkins Recreation Center", "ADDRESS": "420 12th St., SE", "USE_TYPE": "RECREATION CENTER", "WARD_ID": "6", "SCHOOL_SIT": "no", "POOL": "child", "POOL_NAME": "Watkins Children's Pool", "CHILD_CARE": "", "SENIOR_SER": "", "WEB_URL": "http:\/\/app.dpr.dc.gov\/dprmap\/details.asp?cid=43", "PHONE": "(202) 724-4468", "STATUS": "Open" }, "geometry": { "type": "Point", "coordinates": [ -76.990115, 38.883534 ] } }
,
{ "type": "Feature", "id": 25, "properties": { "NAME": "Benning Park Community Center", "ADDRESS": "Southern Ave. and Fable St., SE", "USE_TYPE": "RECREATION CENTER", "WARD_ID": "7", "SCHOOL_SIT": "no", "POOL": "outdoor + child", "POOL_NAME": "Benning Park Pool", "CHILD_CARE": "", "SENIOR_SER": "", "WEB_URL": "", "PHONE": "(202) 341-6765", "STATUS": "Open" }, "geometry": { "type": "Point", "coordinates": [ -76.926938, 38.879799 ] } }
,
{ "type": "Feature", "id": 26, "properties": { "NAME": "Benning Stoddert Community Center", "ADDRESS": "100 Stoddert Pl., SE", "USE_TYPE": "RECREATION CENTER", "WARD_ID": "7", "SCHOOL_SIT": "no", "POOL": "none", "POOL_NAME": "none", "CHILD_CARE": "", "SENIOR_SER": "", "WEB_URL": "", "PHONE": "(202) 698-1873", "STATUS": "Open" }, "geometry": { "type": "Point", "coordinates": [ -76.948244, 38.888841 ] } }
,
{ "type": "Feature", "id": 27, "properties": { "NAME": "Fort Davis Community Center", "ADDRESS": "1400 41st St., SE", "USE_TYPE": "RECREATION CENTER", "WARD_ID": "7", "SCHOOL_SIT": "no", "POOL": "none", "POOL_NAME": "none", "CHILD_CARE": "", "SENIOR_SER": "", "WEB_URL": "", "PHONE": "(202) 645-9212", "STATUS": "Open" }, "geometry": { "type": "Point", "coordinates": [ -76.944690, 38.869197 ] } }
,
{ "type": "Feature", "id": 28, "properties": { "NAME": "Kenilworth-Parkside Recreation Center", "ADDRESS": "1300 44th Street, NE", "USE_TYPE": "RECREATION CENTER", "WARD_ID": "7", "SCHOOL_SIT": "no", "POOL": "none", "POOL_NAME": "none", "CHILD_CARE": "", "SENIOR_SER": "", "WEB_URL": "", "PHONE": "(202) 258-6513", "STATUS": "Open" }, "geometry": { "type": "Point", "coordinates": [ -76.943324, 38.907498 ] } }
,
{ "type": "Feature", "id": 29, "properties": { "NAME": "Ridge Road Recreation Center", "ADDRESS": "800 Ridge Rd., SE", "USE_TYPE": "RECREATION CENTER", "WARD_ID": "7", "SCHOOL_SIT": "no", "POOL": "none", "POOL_NAME": "none", "CHILD_CARE": "", "SENIOR_SER": "", "WEB_URL": "", "PHONE": "(202) 645-3959", "STATUS": "Open" }, "geometry": { "type": "Point", "coordinates": [ -76.941223, 38.876946 ] } }
,
{ "type": "Feature", "id": 30, "properties": { "NAME": "Bald Eagle Spray Park", "ADDRESS": "100 Joliet St., SW", "USE_TYPE": "SPRAY PARK", "WARD_ID": "8", "SCHOOL_SIT": "no", "POOL": "Spray", "POOL_NAME": "Bald Eagle Spray Park", "CHILD_CARE": "", "SENIOR_SER": "", "WEB_URL": "", "PHONE": "(202) 645-3960", "STATUS": "Open" }, "geometry": { "type": "Point", "coordinates": [ -77.010505, 38.818871 ] } }
,
{ "type": "Feature", "id": 31, "properties": { "NAME": "Benning Stoddert Spray Park", "ADDRESS": "100 Stoddert Pl., SE", "USE_TYPE": "SPRAY PARK", "WARD_ID": "7", "SCHOOL_SIT": "no", "POOL": "Spray", "POOL_NAME": "Benning Stoddert Spray Park", "CHILD_CARE": "", "SENIOR_SER": "", "WEB_URL": "", "PHONE": "(202) 698-1873", "STATUS": "Open" }, "geometry": { "type": "Point", "coordinates": [ -76.947202, 38.888772 ] } }
,
{ "type": "Feature", "id": 32, "properties": { "NAME": "Columbia Heights Spray Park", "ADDRESS": "1480 Girard Street, NW", "USE_TYPE": "SPRAY PARK", "WARD_ID": "1", "SCHOOL_SIT": "no", "POOL": "Spray", "POOL_NAME": "Columbia Heights Spray Park", "CHILD_CARE": "", "SENIOR_SER": "", "WEB_URL": "", "PHONE": "(202) 671-0373", "STATUS": "Open" }, "geometry": { "type": "Point", "coordinates": [ -77.034588, 38.924800 ] } }
,
{ "type": "Feature", "id": 33, "properties": { "NAME": "Friendship Spray Park", "ADDRESS": "4500 Van Ness St., NW", "USE_TYPE": "SPRAY PARK", "WARD_ID": "3", "SCHOOL_SIT": "no", "POOL": "Spray", "POOL_NAME": "Friendship Rec Center Spray Park", "CHILD_CARE": "", "SENIOR_SER": "", "WEB_URL": "", "PHONE": "(202) 282-2198", "STATUS": "Open" }, "geometry": { "type": "Point", "coordinates": [ -77.088271, 38.942781 ] } }
,
{ "type": "Feature", "id": 34, "properties": { "NAME": "Lafayette Spray Park", "ADDRESS": "5900 33rd St., NW", "USE_TYPE": "SPRAY PARK", "WARD_ID": "4", "SCHOOL_SIT": "no", "POOL": "Spray", "POOL_NAME": "Lafayette Recreation Center Spray Park", "CHILD_CARE": "", "SENIOR_SER": "", "WEB_URL": "", "PHONE": "(202) 282-2206", "STATUS": "Open" }, "geometry": { "type": "Point", "coordinates": [ -77.067738, 38.967941 ] } }
,
{ "type": "Feature", "id": 35, "properties": { "NAME": "Palisades Spray Park", "ADDRESS": "5200 Sherrier Pl., NW", "USE_TYPE": "SPRAY PARK", "WARD_ID": "3", "SCHOOL_SIT": "no", "POOL": "Spray", "POOL_NAME": "Palisades Community Center Spray Park", "CHILD_CARE": "", "SENIOR_SER": "", "WEB_URL": "", "PHONE": "(202) 282-2186", "STATUS": "Open" }, "geometry": { "type": "Point", "coordinates": [ -77.103956, 38.924812 ] } }
,
{ "type": "Feature", "id": 36, "properties": { "NAME": "Petworth Spray Park", "ADDRESS": "801 Taylor St., NW", "USE_TYPE": "SPRAY PARK", "WARD_ID": "4", "SCHOOL_SIT": "no", "POOL": "Spray", "POOL_NAME": "Petworth Rec Center Spray Park", "CHILD_CARE": "", "SENIOR_SER": "", "WEB_URL": "", "PHONE": "(202) 576-6850", "STATUS": "Open" }, "geometry": { "type": "Point", "coordinates": [ -77.023929, 38.941216 ] } }
,
{ "type": "Feature", "id": 37, "properties": { "NAME": "Riggs LaSalle Spray Park", "ADDRESS": "501 Riggs Rd., NE", "USE_TYPE": "SPRAY PARK", "WARD_ID": "4", "SCHOOL_SIT": "Jessie LaSalle Elementary School", "POOL": "Spray", "POOL_NAME": "Riggs LaSalle Rec Center Spray Park", "CHILD_CARE": "", "SENIOR_SER": "", "WEB_URL": "", "PHONE": "(202) 576-5224", "STATUS": "Open" }, "geometry": { "type": "Point", "coordinates": [ -76.999445, 38.960068 ] } }
,
{ "type": "Feature", "id": 38, "properties": { "NAME": "Bald Eagle Recreation Center", "ADDRESS": "100 Joliet St., SW", "USE_TYPE": "RECREATION CENTER", "WARD_ID": "8", "SCHOOL_SIT": "no", "POOL": "none", "POOL_NAME": "none", "CHILD_CARE": "", "SENIOR_SER": "", "WEB_URL": "http:\/\/app.dpr.dc.gov\/dprmap\/details.asp?cid=46", "PHONE": "(202) 645-3960", "STATUS": "Open" }, "geometry": { "type": "Point", "coordinates": [ -77.010159, 38.818885 ] } }
,
{ "type": "Feature", "id": 39, "properties": { "NAME": "Barry Farm Recreation Center", "ADDRESS": "1230 Sumner Rd., SE", "USE_TYPE": "RECREATION CENTER", "WARD_ID": "8", "SCHOOL_SIT": "no", "POOL": "none", "POOL_NAME": "none", "CHILD_CARE": "", "SENIOR_SER": "", "WEB_URL": "http:\/\/app.dpr.dc.gov\/dprmap\/details.asp?cid=47", "PHONE": "(202) 730-0572", "STATUS": "Open" }, "geometry": { "type": "Point", "coordinates": [ -76.996650, 38.860609 ] } }
,
{ "type": "Feature", "id": 40, "properties": { "NAME": "Congress Heights Recreation Center", "ADDRESS": "611 Alabama Avenue, SE", "USE_TYPE": "RECREATION CENTER", "WARD_ID": "8", "SCHOOL_SIT": "no", "POOL": "none", "POOL_NAME": "none", "CHILD_CARE": "", "SENIOR_SER": "", "WEB_URL": "http:\/\/app.dpr.dc.gov\/dprmap\/details.asp?cid=48", "PHONE": "(202) 645-3981", "STATUS": "Open" }, "geometry": { "type": "Point", "coordinates": [ -76.996825, 38.842246 ] } }
,
{ "type": "Feature", "id": 41, "properties": { "NAME": "Douglass Community Center", "ADDRESS": "2100 Stanton Terrace, SE", "USE_TYPE": "RECREATION CENTER", "WARD_ID": "8", "SCHOOL_SIT": "no", "POOL": "outdoor", "POOL_NAME": "Douglass Pool", "CHILD_CARE": "", "SENIOR_SER": "", "WEB_URL": "http:\/\/app.dpr.dc.gov\/dprmap\/details.asp?cid=49", "PHONE": "(202) 645-3980", "STATUS": "Open" }, "geometry": { "type": "Point", "coordinates": [ -76.977761, 38.852607 ] } }
,
{ "type": "Feature", "id": 42, "properties": { "NAME": "Ferebee-Hope Recreation Center", "ADDRESS": "3999 8th Street, SE", "USE_TYPE": "RECREATION CENTER", "WARD_ID": "8", "SCHOOL_SIT": "Ferebee-Hope Elementary School", "POOL": "indoor", "POOL_NAME": "Ferebee Hope Pool", "CHILD_CARE": "", "SENIOR_SER": "", "WEB_URL": "http:\/\/app.dpr.dc.gov\/dprmap\/details.asp?cid=50", "PHONE": "(202) 645-3917", "STATUS": "Open" }, "geometry": { "type": "Point", "coordinates": [ -76.995163, 38.832344 ] } }
,
{ "type": "Feature", "id": 43, "properties": { "NAME": "Upshur Pool", "ADDRESS": "4300 Arkansas Ave., NW", "USE_TYPE": "POOL", "WARD_ID": "4", "SCHOOL_SIT": "no", "POOL": "outdoor + child", "POOL_NAME": "Upshur Pool", "CHILD_CARE": "", "SENIOR_SER": "", "WEB_URL": "", "PHONE": "(202) 576-8661", "STATUS": "Open" }, "geometry": { "type": "Point", "coordinates": [ -77.031417, 38.944185 ] } }
,
{ "type": "Feature", "id": 44, "properties": { "NAME": "Francis Pool", "ADDRESS": "2435 N Street NW", "USE_TYPE": "POOL", "WARD_ID": "2", "SCHOOL_SIT": "no", "POOL": "outdoor", "POOL_NAME": "Francis Pool", "CHILD_CARE": "", "SENIOR_SER": "", "WEB_URL": "", "PHONE": "(202) 727-3285", "STATUS": "Open" }, "geometry": { "type": "Point", "coordinates": [ -77.053775, 38.907313 ] } }
,
{ "type": "Feature", "id": 45, "properties": { "NAME": "East Potomac Pool", "ADDRESS": "972 Ohio Dr. SW", "USE_TYPE": "POOL", "WARD_ID": "2", "SCHOOL_SIT": "no", "POOL": "outdoor", "POOL_NAME": "East Potomac Pool", "CHILD_CARE": "", "SENIOR_SER": "", "WEB_URL": "", "PHONE": "(202)-727-6523", "STATUS": "Open" }, "geometry": { "type": "Point", "coordinates": [ -77.027493, 38.874633 ] } }
,
{ "type": "Feature", "id": 46, "properties": { "NAME": "Fort Dupont Pool", "ADDRESS": "Ridge Rd and Burns St SE", "USE_TYPE": "POOL", "WARD_ID": "7", "SCHOOL_SIT": "no", "POOL": "outdoor", "POOL_NAME": "Fort Dupont Pool", "CHILD_CARE": "", "SENIOR_SER": "", "WEB_URL": "", "PHONE": "(202) 645-5046", "STATUS": "Open" }, "geometry": { "type": "Point", "coordinates": [ -76.940064, 38.876185 ] } }
,
{ "type": "Feature", "id": 47, "properties": { "NAME": "Oxon Run Pool", "ADDRESS": "4th St and Mississippi Ave SE", "USE_TYPE": "POOL", "WARD_ID": "8", "SCHOOL_SIT": "no", "POOL": "outdoor + child", "POOL_NAME": "Oxon Run Pool", "CHILD_CARE": "", "SENIOR_SER": "", "WEB_URL": "", "PHONE": "(202) 645-5042", "STATUS": "Open" }, "geometry": { "type": "Point", "coordinates": [ -76.998785, 38.836581 ] } }
,
{ "type": "Feature", "id": 48, "properties": { "NAME": "Randall Recreation Center", "ADDRESS": "South Capitol St and I St SW", "USE_TYPE": "RECREATION CENTER", "WARD_ID": "6", "SCHOOL_SIT": "no", "POOL": "outdoor", "POOL_NAME": "Randall Pool", "CHILD_CARE": "", "SENIOR_SER": "", "WEB_URL": "", "PHONE": "", "STATUS": "Open" }, "geometry": { "type": "Point", "coordinates": [ -77.010487, 38.880045 ] } }
,
{ "type": "Feature", "id": 49, "properties": { "NAME": "Lincoln Capper Children's Pool", "ADDRESS": "500 L St SE", "USE_TYPE": "POOL", "WARD_ID": "6", "SCHOOL_SIT": "no", "POOL": "child", "POOL_NAME": "Lincoln Capper Children's Pool", "CHILD_CARE": "", "SENIOR_SER": "", "WEB_URL": "", "PHONE": "(202) 727-1080", "STATUS": "Open" }, "geometry": { "type": "Point", "coordinates": [ -76.998360, 38.877012 ] } }
,
{ "type": "Feature", "id": 50, "properties": { "NAME": "Happy Hollow Children's Pool", "ADDRESS": "18th and Kalorama St NW", "USE_TYPE": "POOL", "WARD_ID": "1", "SCHOOL_SIT": "Marie Reed Learning Center", "POOL": "child", "POOL_NAME": "Happy Hollow Children's Pool", "CHILD_CARE": "", "SENIOR_SER": "", "WEB_URL": "", "PHONE": "(202) 673-2123", "STATUS": "Open" }, "geometry": { "type": "Point", "coordinates": [ -77.040980, 38.919503 ] } }
,
{ "type": "Feature", "id": 51, "properties": { "NAME": "Banneker Community Center", "ADDRESS": "2500 Georgia Ave., NW", "USE_TYPE": "RECREATION CENTER", "WARD_ID": "1", "SCHOOL_SIT": "no", "POOL": "outdoor + child", "POOL_NAME": "Banneker Pool", "CHILD_CARE": "", "SENIOR_SER": "", "WEB_URL": "http:\/\/app.dpr.dc.gov\/dprmap\/details.asp?cid=2", "PHONE": "(202) 673-6861", "STATUS": "Open" }, "geometry": { "type": "Point", "coordinates": [ -77.022569, 38.922697 ] } }
,
{ "type": "Feature", "id": 52, "properties": { "NAME": "Harrison Recreation Center", "ADDRESS": "1330 V St., NW", "USE_TYPE": "RECREATION CENTER", "WARD_ID": "1", "SCHOOL_SIT": "no", "POOL": "none", "POOL_NAME": "none", "CHILD_CARE": "", "SENIOR_SER": "", "WEB_URL": "", "PHONE": "(202) 673-6865", "STATUS": "Open" }, "geometry": { "type": "Point", "coordinates": [ -77.030289, 38.917953 ] } }
,
{ "type": "Feature", "id": 53, "properties": { "NAME": "Kalorama Recreation Center", "ADDRESS": "1875 Columbia Rd., NW", "USE_TYPE": "RECREATION CENTER", "WARD_ID": "1", "SCHOOL_SIT": "no", "POOL": "none", "POOL_NAME": "none", "CHILD_CARE": "", "SENIOR_SER": "", "WEB_URL": "http:\/\/app.dpr.dc.gov\/dprmap\/details.asp?cid=67", "PHONE": "(202) 673-7606", "STATUS": "Open" }, "geometry": { "type": "Point", "coordinates": [ -77.044365, 38.920717 ] } }
,
{ "type": "Feature", "id": 54, "properties": { "NAME": "Parkview Community Center", "ADDRESS": "693 Otis Pl., NW", "USE_TYPE": "RECREATION CENTER", "WARD_ID": "1", "SCHOOL_SIT": "no", "POOL": "walk to learn", "POOL_NAME": "Parkview Children's Pool", "CHILD_CARE": "", "SENIOR_SER": "", "WEB_URL": "", "PHONE": "(202) 576-5750", "STATUS": "Open" }, "geometry": { "type": "Point", "coordinates": [ -77.021437, 38.935071 ] } }
,
{ "type": "Feature", "id": 55, "properties": { "NAME": "Stoddert Recreation Center", "ADDRESS": "4001 Calvert St., NW", "USE_TYPE": "RECREATION CENTER", "WARD_ID": "3", "SCHOOL_SIT": "Stoddert Elementary School", "POOL": "none", "POOL_NAME": "none", "CHILD_CARE": "", "SENIOR_SER": "", "WEB_URL": "", "PHONE": "", "STATUS": "Closed for renovations" }, "geometry": { "type": "Point", "coordinates": [ -77.079074, 38.923044 ] } }
,
{ "type": "Feature", "id": 56, "properties": { "NAME": "Sherwood Recreation Center", "ADDRESS": "640 10th St., NE", "USE_TYPE": "RECREATION CENTER", "WARD_ID": "6", "SCHOOL_SIT": "no", "POOL": "none", "POOL_NAME": "none", "CHILD_CARE": "", "SENIOR_SER": "", "WEB_URL": "http:\/\/app.dpr.dc.gov\/dprmap\/details.asp?cid=42", "PHONE": "(202) 698-3075", "STATUS": "Open" }, "geometry": { "type": "Point", "coordinates": [ -76.993017, 38.898545 ] } }
,
{ "type": "Feature", "id": 57, "properties": { "NAME": "Southeast Tennis & Learning Center", "ADDRESS": "701 Mississippi Ave., SE", "USE_TYPE": "RECREATION CENTER", "WARD_ID": "8", "SCHOOL_SIT": "no", "POOL": "none", "POOL_NAME": "none", "CHILD_CARE": "", "SENIOR_SER": "", "WEB_URL": "http:\/\/app.dpr.dc.gov\/dprmap\/details.asp?cid=44", "PHONE": "(202) 645-6242", "STATUS": "Open" }, "geometry": { "type": "Point", "coordinates": [ -76.994547, 38.838511 ] } }
,
{ "type": "Feature", "id": 58, "properties": { "NAME": "Joseph H. Cole Recreation Center", "ADDRESS": "1200 Morse St., NE", "USE_TYPE": "RECREATION CENTER", "WARD_ID": "5", "SCHOOL_SIT": "no", "POOL": "none", "POOL_NAME": "none", "CHILD_CARE": "", "SENIOR_SER": "", "WEB_URL": "", "PHONE": "(202) 724-4876", "STATUS": "Open" }, "geometry": { "type": "Point", "coordinates": [ -76.988792, 38.903655 ] } }
,
{ "type": "Feature", "id": 59, "properties": { "NAME": "Watts Branch Recreation Center", "ADDRESS": "6201 Banks Pl., NE", "USE_TYPE": "RECREATION CENTER", "WARD_ID": "7", "SCHOOL_SIT": "no", "POOL": "none", "POOL_NAME": "none", "CHILD_CARE": "", "SENIOR_SER": "", "WEB_URL": "http:\/\/app.dpr.dc.gov\/dprmap\/details.asp?cid=107", "PHONE": "(202) 727-7432", "STATUS": "Open" }, "geometry": { "type": "Point", "coordinates": [ -76.912311, 38.891770 ] } }
,
{ "type": "Feature", "id": 60, "properties": { "NAME": "Malcolm X Recreation Center", "ADDRESS": "3200 13th St., SE", "USE_TYPE": "RECREATION CENTER", "WARD_ID": "8", "SCHOOL_SIT": "Malcolm X Elementary School", "POOL": "none", "POOL_NAME": "none", "CHILD_CARE": "", "SENIOR_SER": "", "WEB_URL": "http:\/\/app.dpr.dc.gov\/dprmap\/details.asp?cid=52", "PHONE": "(202) 997-5841", "STATUS": "Open" }, "geometry": { "type": "Point", "coordinates": [ -76.988268, 38.844463 ] } }
,
{ "type": "Feature", "id": 61, "properties": { "NAME": "Jelleff Recreation Center", "ADDRESS": "3265 S Street, NW", "USE_TYPE": "RECREATION CENTER", "WARD_ID": "2", "SCHOOL_SIT": "", "POOL": "outdoor", "POOL_NAME": "Jelleff Pool", "CHILD_CARE": "", "SENIOR_SER": "", "WEB_URL": "", "PHONE": "(202) 462-1317", "STATUS": "Open" }, "geometry": { "type": "Point", "coordinates": [ -77.066859, 38.915717 ] } }
,
{ "type": "Feature", "id": 62, "properties": { "NAME": "Loughran Recreation Center", "ADDRESS": "2500 14th Street, NW", "USE_TYPE": "RECREATION CENTER", "WARD_ID": "1", "SCHOOL_SIT": "", "POOL": "none", "POOL_NAME": "none", "CHILD_CARE": "", "SENIOR_SER": "", "WEB_URL": "", "PHONE": "(202) 232-2197", "STATUS": "Open" }, "geometry": { "type": "Point", "coordinates": [ -77.032362, 38.921999 ] } }
,
{ "type": "Feature", "id": 63, "properties": { "NAME": "Deanwood Recreation Center", "ADDRESS": "1350 49th St., NE", "USE_TYPE": "RECREATION CENTER", "WARD_ID": "7", "SCHOOL_SIT": "", "POOL": "indoor", "POOL_NAME": "Deanwood Aquatic Center", "CHILD_CARE": "", "SENIOR_SER": "", "WEB_URL": "http:\/\/app.dpr.dc.gov\/dprmap\/details.asp?cid=101", "PHONE": "(202) 671-3077", "STATUS": "Open" }, "geometry": { "type": "Point", "coordinates": [ -76.932542, 38.908464 ] } }
,
{ "type": "Feature", "id": 64, "properties": { "NAME": "Deanwood Aquatic Center", "ADDRESS": "1350 49th St., NE", "USE_TYPE": "POOL", "WARD_ID": "7", "SCHOOL_SIT": "", "POOL": "indoor", "POOL_NAME": "Deanwood Aquatic Center", "CHILD_CARE": "", "SENIOR_SER": "", "WEB_URL": "", "PHONE": "(202) 671-3078", "STATUS": "Open" }, "geometry": { "type": "Point", "coordinates": [ -76.932542, 38.908464 ] } }
,
{ "type": "Feature", "id": 65, "properties": { "NAME": "Jelleff Pool", "ADDRESS": "3265 S Street, NW", "USE_TYPE": "POOL", "WARD_ID": "2", "SCHOOL_SIT": "", "POOL": "outdoor", "POOL_NAME": "Jelleff Pool", "CHILD_CARE": "", "SENIOR_SER": "", "WEB_URL": "", "PHONE": "(202) 462-1317", "STATUS": "Open" }, "geometry": { "type": "Point", "coordinates": [ -77.066859, 38.915717 ] } }
,
{ "type": "Feature", "id": 66, "properties": { "NAME": "Anacostia Pool", "ADDRESS": "1800 Anacostia Dr., SE\r\n", "USE_TYPE": "POOL", "WARD_ID": "8", "SCHOOL_SIT": "Kenilworth Elementary School", "POOL": "outdoor", "POOL_NAME": "Anacostia Fitness Pool", "CHILD_CARE": "", "SENIOR_SER": "", "WEB_URL": "", "PHONE": "(202) 724-1441", "STATUS": "Open" }, "geometry": { "type": "Point", "coordinates": [ -76.983102, 38.872588 ] } }
,
{ "type": "Feature", "id": 67, "properties": { "NAME": "Banneker Pool", "ADDRESS": "2500 Georgia Ave., NW", "USE_TYPE": "POOL", "WARD_ID": "1", "SCHOOL_SIT": "no", "POOL": "outdoor + child", "POOL_NAME": "Banneker Pool", "CHILD_CARE": "", "SENIOR_SER": "", "WEB_URL": "http:\/\/app.dpr.dc.gov\/dprmap\/details.asp?cid=4", "PHONE": "(202) 673-2121", "STATUS": "Open" }, "geometry": { "type": "Point", "coordinates": [ -77.022569, 38.922697 ] } }
,
{ "type": "Feature", "id": 68, "properties": { "NAME": "Benning Park Pool", "ADDRESS": "Southern Ave. and Fable St., SE", "USE_TYPE": "POOL", "WARD_ID": "7", "SCHOOL_SIT": "no", "POOL": "outdoor + child", "POOL_NAME": "Benning Park Pool", "CHILD_CARE": "", "SENIOR_SER": "", "WEB_URL": "", "PHONE": "(202) 645-5044", "STATUS": "Open" }, "geometry": { "type": "Point", "coordinates": [ -76.926938, 38.879799 ] } }
,
{ "type": "Feature", "id": 69, "properties": { "NAME": "Ferebee-Hope Aquatic Center", "ADDRESS": "3999 8th Street, SE", "USE_TYPE": "RECREATION CENTER", "WARD_ID": "8", "SCHOOL_SIT": "Ferebee-Hope Elementary School", "POOL": "indoor", "POOL_NAME": "Ferebee Hope Pool", "CHILD_CARE": "", "SENIOR_SER": "", "WEB_URL": "", "PHONE": "(202) 645-3916", "STATUS": "Open" }, "geometry": { "type": "Point", "coordinates": [ -76.995163, 38.832344 ] } }
,
{ "type": "Feature", "id": 70, "properties": { "NAME": "Harry Thomas Pool", "ADDRESS": "1743 Lincoln Rd., NE", "USE_TYPE": "POOL", "WARD_ID": "5", "SCHOOL_SIT": "no", "POOL": "outdoor + child", "POOL_NAME": "Harry Thomas Pool", "CHILD_CARE": "", "SENIOR_SER": "", "WEB_URL": "", "PHONE": "(202) 541-7499", "STATUS": "Open" }, "geometry": { "type": "Point", "coordinates": [ -77.007868, 38.913986 ] } }
,
{ "type": "Feature", "id": 71, "properties": { "NAME": "Marie Reed Aquatic Facility", "ADDRESS": "2200 Champlain St., NW", "USE_TYPE": "POOL", "WARD_ID": "1", "SCHOOL_SIT": "Reed Elementary School", "POOL": "indoor", "POOL_NAME": "Marie Reed Aquatic Facility", "CHILD_CARE": "", "SENIOR_SER": "", "WEB_URL": "", "PHONE": "(202) 673-7771", "STATUS": "Open" }, "geometry": { "type": "Point", "coordinates": [ -77.040530, 38.919167 ] } }
,
{ "type": "Feature", "id": 72, "properties": { "NAME": "Parkview Children's Pool", "ADDRESS": "693 Otis Pl., NW", "USE_TYPE": "POOL", "WARD_ID": "1", "SCHOOL_SIT": "no", "POOL": "child", "POOL_NAME": "Parkview Children's Pool", "CHILD_CARE": "", "SENIOR_SER": "", "WEB_URL": "", "PHONE": "(202) 576-5750", "STATUS": "Open" }, "geometry": { "type": "Point", "coordinates": [ -77.021437, 38.935071 ] } }
,
{ "type": "Feature", "id": 73, "properties": { "NAME": "Randall Pool", "ADDRESS": "South Capitol St and I St SW", "USE_TYPE": "POOL", "WARD_ID": "6", "SCHOOL_SIT": "no", "POOL": "outdoor", "POOL_NAME": "Randall Pool", "CHILD_CARE": "", "SENIOR_SER": "", "WEB_URL": "", "PHONE": "(202) 727-1420", "STATUS": "Open" }, "geometry": { "type": "Point", "coordinates": [ -77.010487, 38.880045 ] } }
,
{ "type": "Feature", "id": 74, "properties": { "NAME": "RH Terrell Recreation Center", "ADDRESS": "155 L St., NW", "USE_TYPE": "RECREATION CENTER", "WARD_ID": "5", "SCHOOL_SIT": "Walker Jones Education Center", "POOL": "none", "POOL_NAME": "none", "CHILD_CARE": "", "SENIOR_SER": "", "WEB_URL": "http:\/\/app.dpr.dc.gov\/dprmap\/details.asp?cid=104", "PHONE": "(202) 939-5946", "STATUS": "Open" }, "geometry": { "type": "Point", "coordinates": [ -77.013617, 38.904002 ] } }
,
{ "type": "Feature", "id": 75, "properties": { "NAME": "Theodore Hagans Pool", "ADDRESS": "3201 Fort Lincoln Dr., NE", "USE_TYPE": "POOL", "WARD_ID": "5", "SCHOOL_SIT": "no", "POOL": "outdoor + child", "POOL_NAME": "Theodore Hagans Pool", "CHILD_CARE": "", "SENIOR_SER": "", "WEB_URL": "", "PHONE": "(202) 576-6389", "STATUS": "Open" }, "geometry": { "type": "Point", "coordinates": [ -76.958245, 38.924161 ] } }
,
{ "type": "Feature", "id": 76, "properties": { "NAME": "Thurgood Marshall Aquatic Center", "ADDRESS": "3100 Ft. Lincoln Dr., NE", "USE_TYPE": "POOL", "WARD_ID": "5", "SCHOOL_SIT": "Marshall Education Center", "POOL": "indoor", "POOL_NAME": "Thurgood Marshall Aquatic Center", "CHILD_CARE": "", "SENIOR_SER": "", "WEB_URL": "", "PHONE": "", "STATUS": "Open" }, "geometry": { "type": "Point", "coordinates": [ -76.957098, 38.927375 ] } }
,
{ "type": "Feature", "id": 77, "properties": { "NAME": "Turkey Thicket Aquatic Center", "ADDRESS": "1100 Michigan Ave. NE", "USE_TYPE": "AQUATIC CENTER", "WARD_ID": "5", "SCHOOL_SIT": "no", "POOL": "indoor", "POOL_NAME": "Turkey Thicket Aquatic Center", "CHILD_CARE": "", "SENIOR_SER": "", "WEB_URL": "http:\/\/app.dpr.dc.gov\/dprmap\/details.asp?cid=90", "PHONE": "(202) 576-9238", "STATUS": "Open" }, "geometry": { "type": "Point", "coordinates": [ -76.992600, 38.938064 ] } }
,
{ "type": "Feature", "id": 78, "properties": { "NAME": "Volta Park Pool", "ADDRESS": "1555 34th St., NW", "USE_TYPE": "POOL", "WARD_ID": "2", "SCHOOL_SIT": "no", "POOL": "outdoor", "POOL_NAME": "Volta Park Pool", "CHILD_CARE": "", "SENIOR_SER": "", "WEB_URL": "", "PHONE": "(202) 282-0381", "STATUS": "Open" }, "geometry": { "type": "Point", "coordinates": [ -77.066803, 38.910102 ] } }
,
{ "type": "Feature", "id": 79, "properties": { "NAME": "Watkins Children's Pool", "ADDRESS": "420 12th St., SE", "USE_TYPE": "POOL", "WARD_ID": "6", "SCHOOL_SIT": "no", "POOL": "child", "POOL_NAME": "Watkins Children's Pool", "CHILD_CARE": "", "SENIOR_SER": "", "WEB_URL": "", "PHONE": "(202) 727-1504", "STATUS": "Open" }, "geometry": { "type": "Point", "coordinates": [ -76.990115, 38.883534 ] } }
,
{ "type": "Feature", "id": 80, "properties": { "NAME": "Theodore Hagans Cultural Center", "ADDRESS": "3201 Fort Lincoln Dr., NE", "USE_TYPE": "RECREATION CENTER", "WARD_ID": "5", "SCHOOL_SIT": "no", "POOL": "outdoor + child", "POOL_NAME": "Theodore Hagans Pool", "CHILD_CARE": "", "SENIOR_SER": "", "WEB_URL": "", "PHONE": "(202) 576-6440", "STATUS": "Open" }, "geometry": { "type": "Point", "coordinates": [ -76.958245, 38.924161 ] } }
,
{ "type": "Feature", "id": 81, "properties": { "NAME": "Hearst Recreation Center", "ADDRESS": "3950 37th St., NW", "USE_TYPE": "RECREATION CENTER", "WARD_ID": "3", "SCHOOL_SIT": "Hearst Elementary School", "POOL": "none", "POOL_NAME": "none", "CHILD_CARE": "", "SENIOR_SER": "", "WEB_URL": "http:\/\/app.dpr.dc.gov\/dprmap\/details.asp?cid=10", "PHONE": "(202) 282-2207", "STATUS": "Open" }, "geometry": { "type": "Point", "coordinates": [ -77.071253, 38.940411 ] } }
,
{ "type": "Feature", "id": 82, "properties": { "NAME": "Raymond Recreation Center", "ADDRESS": "915 Spring Rd., NW", "USE_TYPE": "RECREATION CENTER", "WARD_ID": "4", "SCHOOL_SIT": "no", "POOL": "none", "POOL_NAME": "none", "CHILD_CARE": "", "SENIOR_SER": "", "WEB_URL": "", "PHONE": "(202) 576-6856", "STATUS": "Open" }, "geometry": { "type": "Point", "coordinates": [ -77.026618, 38.936494 ] } }
,
{ "type": "Feature", "id": 83, "properties": { "NAME": "Harry Thomas Sr. Recreation Center", "ADDRESS": "1743 Lincoln Rd., NE", "USE_TYPE": "RECREATION CENTER", "WARD_ID": "5", "SCHOOL_SIT": "no", "POOL": "outdoor + child", "POOL_NAME": "Harry Thomas Pool", "CHILD_CARE": "", "SENIOR_SER": "", "WEB_URL": "http:\/\/app.dpr.dc.gov\/dprmap\/details.asp?cid=33", "PHONE": "(202) 576-5642", "STATUS": "Open" }, "geometry": { "type": "Point", "coordinates": [ -77.007868, 38.913986 ] } }
,
{ "type": "Feature", "id": 84, "properties": { "NAME": "Columbia Heights Community Center", "ADDRESS": "1480 Girard Street, NW", "USE_TYPE": "RECREATION CENTER", "WARD_ID": "1", "SCHOOL_SIT": "no", "POOL": "none", "POOL_NAME": "none", "CHILD_CARE": "", "SENIOR_SER": "", "WEB_URL": "http:\/\/app.dpr.dc.gov\/dprmap\/details.asp?cid=1", "PHONE": "(202) 671-0373", "STATUS": "Open" }, "geometry": { "type": "Point", "coordinates": [ -77.035134, 38.925209 ] } }
,
{ "type": "Feature", "id": 85, "properties": { "NAME": "Hillcrest Recreation Center", "ADDRESS": "3100 Denver St., SE", "USE_TYPE": "RECREATION CENTER", "WARD_ID": "7", "SCHOOL_SIT": "no", "POOL": "none", "POOL_NAME": "none", "CHILD_CARE": "", "SENIOR_SER": "", "WEB_URL": "", "PHONE": "(202) 645-9200", "STATUS": "Open" }, "geometry": { "type": "Point", "coordinates": [ -76.962631, 38.858606 ] } }
,
{ "type": "Feature", "id": 86, "properties": { "NAME": "Marie Reed Recreation Center", "ADDRESS": "2200 Champlain St., NW", "USE_TYPE": "RECREATION CENTER", "WARD_ID": "1", "SCHOOL_SIT": "Reed Elementary School", "POOL": "indoor", "POOL_NAME": "Marie Reed Aquatic Facility", "CHILD_CARE": "", "SENIOR_SER": "", "WEB_URL": "", "PHONE": "(202) 673-7768", "STATUS": "Open" }, "geometry": { "type": "Point", "coordinates": [ -77.040530, 38.919167 ] } }
,
{ "type": "Feature", "id": 87, "properties": { "NAME": "William H. Rumsey Aquatic Center", "ADDRESS": "635 North Carolina Ave., SE", "USE_TYPE": "AQUATIC CENTER", "WARD_ID": "6", "SCHOOL_SIT": "no", "POOL": "indoor", "POOL_NAME": "William H. Rumsey Aquatic Facility", "CHILD_CARE": "", "SENIOR_SER": "", "WEB_URL": "http:\/\/app.dpr.dc.gov\/dprmap\/details.asp?cid=91", "PHONE": "(202) 724-4495", "STATUS": "Open" }, "geometry": { "type": "Point", "coordinates": [ -76.997029, 38.886585 ] } }
,
{ "type": "Feature", "id": 88, "properties": { "NAME": "King-Greenleaf Recreation Center", "ADDRESS": "201 N St., SW", "USE_TYPE": "RECREATION CENTER", "WARD_ID": "6", "SCHOOL_SIT": "no", "POOL": "none", "POOL_NAME": "none", "CHILD_CARE": "", "SENIOR_SER": "", "WEB_URL": "http:\/\/app.dpr.dc.gov\/dprmap\/details.asp?cid=40", "PHONE": "(202) 645-7454", "STATUS": "Open" }, "geometry": { "type": "Point", "coordinates": [ -77.012792, 38.875016 ] } }
,
{ "type": "Feature", "id": 89, "properties": { "NAME": "Palisades Community Center", "ADDRESS": "5200 Sherrier Pl., NW", "USE_TYPE": "RECREATION CENTER", "WARD_ID": "3", "SCHOOL_SIT": "no", "POOL": "none", "POOL_NAME": "none", "CHILD_CARE": "", "SENIOR_SER": "", "WEB_URL": "http:\/\/app.dpr.dc.gov\/dprmap\/details.asp?cid=12", "PHONE": "(202) 282-2186", "STATUS": "Open" }, "geometry": { "type": "Point", "coordinates": [ -77.104574, 38.924555 ] } }
,
{ "type": "Feature", "id": 90, "properties": { "NAME": "Dunbar Aquatic Center", "ADDRESS": "1301 New Jersey Ave., NW", "USE_TYPE": "POOL", "WARD_ID": "5", "SCHOOL_SIT": "Dunbar Senior High School", "POOL": "indoor", "POOL_NAME": "Dunbar Aquatic Facility", "CHILD_CARE": "", "SENIOR_SER": "", "WEB_URL": "", "PHONE": "(202) 673-4316", "STATUS": "Open" }, "geometry": { "type": "Point", "coordinates": [ -77.014694, 38.908523 ] } }
,
{ "type": "Feature", "id": 91, "properties": { "NAME": "Barry Farm Pool", "ADDRESS": "1230 Sumner Rd., SE", "USE_TYPE": "POOL", "WARD_ID": "8", "SCHOOL_SIT": "no", "POOL": "outdoor", "POOL_NAME": "Barry Farm Pool", "CHILD_CARE": "", "SENIOR_SER": "", "WEB_URL": "", "PHONE": "(202) 730-0572", "STATUS": "Open" }, "geometry": { "type": "Point", "coordinates": [ -76.996629, 38.861375 ] } }
,
{ "type": "Feature", "id": 92, "properties": { "NAME": "Douglass Pool", "ADDRESS": "Frederick Douglass Ct. and Stanton Ter., SE", "USE_TYPE": "POOL", "WARD_ID": "8", "SCHOOL_SIT": "no", "POOL": "outdoor + child", "POOL_NAME": "Douglass Pool", "CHILD_CARE": "", "SENIOR_SER": "", "WEB_URL": "", "PHONE": "(202) 645-5045", "STATUS": "Open" }, "geometry": { "type": "Point", "coordinates": [ -76.977067, 38.852773 ] } }
,
{ "type": "Feature", "id": 93, "properties": { "NAME": "Kelly Miller Pool", "ADDRESS": "4900 Brooks St., NE", "USE_TYPE": "POOL", "WARD_ID": "7", "SCHOOL_SIT": "no", "POOL": "outdoor + child", "POOL_NAME": "Kelly Miller Pool", "CHILD_CARE": "", "SENIOR_SER": "", "WEB_URL": "", "PHONE": "(202) 724-5056", "STATUS": "Open" }, "geometry": { "type": "Point", "coordinates": [ -76.930963, 38.893625 ] } }
,
{ "type": "Feature", "id": 94, "properties": { "NAME": "Takoma Aquatic Center", "ADDRESS": "300 Van Buren ST., NW", "USE_TYPE": "POOL", "WARD_ID": "4", "SCHOOL_SIT": "no", "POOL": "indoor", "POOL_NAME": "Takoma Aquatic Facility", "CHILD_CARE": "", "SENIOR_SER": "", "WEB_URL": "http:\/\/app.dpr.dc.gov\/dprmap\/details.asp?cid=84", "PHONE": "(202) 576-9284", "STATUS": "Closed Sept. 5 2010 - Oct. 7 2010 for renovations" }, "geometry": { "type": "Point", "coordinates": [ -77.018064, 38.968875 ] } }
,
{ "type": "Feature", "id": 95, "properties": { "NAME": "Fort Stanton Pool", "ADDRESS": "1800 Erie St., SE", "USE_TYPE": "POOL", "WARD_ID": "8", "SCHOOL_SIT": "no", "POOL": "outdoor", "POOL_NAME": "Fort Stanton Pool", "CHILD_CARE": "", "SENIOR_SER": "", "WEB_URL": "", "PHONE": "(202) 645-5047", "STATUS": "Open" }, "geometry": { "type": "Point", "coordinates": [ -76.977987, 38.857707 ] } }
,
{ "type": "Feature", "id": 96, "properties": { "NAME": "Langdon Park Pool", "ADDRESS": "Mills Ave. and Hamlin St., NE", "USE_TYPE": "POOL", "WARD_ID": "5", "SCHOOL_SIT": "no", "POOL": "outdoor + child", "POOL_NAME": "Langdon Park Pool", "CHILD_CARE": "", "SENIOR_SER": "", "WEB_URL": "", "PHONE": "(202) 576-8655", "STATUS": "Open" }, "geometry": { "type": "Point", "coordinates": [ -76.973744, 38.926788 ] } }
,
{ "type": "Feature", "id": 97, "properties": { "NAME": "Wilson Aquatic Center", "ADDRESS": "4551 Fort Drive, NW", "USE_TYPE": "AQUATIC CENTER", "WARD_ID": "4", "SCHOOL_SIT": "Woodrow Senior High School", "POOL": "indoor", "POOL_NAME": "Wilson Aquatic Center", "CHILD_CARE": "", "SENIOR_SER": "", "WEB_URL": "http:\/\/app.dpr.dc.gov\/dprmap\/details.asp?cid=3", "PHONE": "(202) 730-0583", "STATUS": "Open" }, "geometry": { "type": "Point", "coordinates": [ -77.077931, 38.949281 ] } }
,
{ "type": "Feature", "id": 98, "properties": { "NAME": "Barry Farm Children's Pool", "ADDRESS": "1230 Sumner Rd., SE", "USE_TYPE": "POOL", "WARD_ID": "8", "SCHOOL_SIT": "no", "POOL": "walk to learn", "POOL_NAME": "Barry Farm Walk to Learn", "CHILD_CARE": "", "SENIOR_SER": "", "WEB_URL": "", "PHONE": "(202) 645-5041", "STATUS": "Open" }, "geometry": { "type": "Point", "coordinates": [ -76.996198, 38.860143 ] } }
,
{ "type": "Feature", "id": 99, "properties": { "NAME": "Mitchell Park Recreation Center", "ADDRESS": "1801 23rd St., NW", "USE_TYPE": "RECREATION CENTER", "WARD_ID": "2", "SCHOOL_SIT": "no", "POOL": "none", "POOL_NAME": "none", "CHILD_CARE": "", "SENIOR_SER": "", "WEB_URL": "", "PHONE": "(202) 673-6871", "STATUS": "Open" }, "geometry": { "type": "Point", "coordinates": [ -77.050243, 38.914492 ] } }
,
{ "type": "Feature", "id": 100, "properties": { "NAME": "Therapeutic Recreation Center", "ADDRESS": "3030 G St., SE", "USE_TYPE": "RECREATION CENTER", "WARD_ID": "7", "SCHOOL_SIT": "no", "POOL": "indoor", "POOL_NAME": "Center for Therapeutic Recreation Pool", "CHILD_CARE": "", "SENIOR_SER": "", "WEB_URL": "", "PHONE": "(202) 698-1794", "STATUS": "Open" }, "geometry": { "type": "Point", "coordinates": [ -76.963187, 38.880969 ] } }
,
{ "type": "Feature", "id": 101, "properties": { "NAME": "Riggs LaSalle Recreation Center", "ADDRESS": "501 Riggs Rd., NE", "USE_TYPE": "RECREATION CENTER", "WARD_ID": "4", "SCHOOL_SIT": "Jessie LaSalle Elementary School", "POOL": "none", "POOL_NAME": "none", "CHILD_CARE": "", "SENIOR_SER": "", "WEB_URL": "", "PHONE": "(202) 576-5224", "STATUS": "Open" }, "geometry": { "type": "Point", "coordinates": [ -76.999883, 38.959972 ] } }
,
{ "type": "Feature", "id": 102, "properties": { "NAME": "Chevy Chase Community Center", "ADDRESS": "5601 Connecticut Ave., NW", "USE_TYPE": "RECREATION CENTER", "WARD_ID": "3", "SCHOOL_SIT": "no", "POOL": "none", "POOL_NAME": "none", "CHILD_CARE": "", "SENIOR_SER": "", "WEB_URL": "http:\/\/app.dpr.dc.gov\/dprmap\/details.asp?cid=5", "PHONE": "(202) 282-2204", "STATUS": "Open" }, "geometry": { "type": "Point", "coordinates": [ -77.075153, 38.965138 ] } }
,
{ "type": "Feature", "id": 103, "properties": { "NAME": "Chevy Chase Playground", "ADDRESS": "5500 41st St, NW", "USE_TYPE": "RECREATION CENTER", "WARD_ID": "3", "SCHOOL_SIT": "no", "POOL": "none", "POOL_NAME": "none", "CHILD_CARE": "", "SENIOR_SER": "", "WEB_URL": "http:\/\/app.dpr.dc.gov\/dprmap\/details.asp?cid=6", "PHONE": "(202) 282-2200", "STATUS": "Open" }, "geometry": { "type": "Point", "coordinates": [ -77.080708, 38.963457 ] } }
,
{ "type": "Feature", "id": 104, "properties": { "NAME": "Friendship Recreation Center", "ADDRESS": "4500 Van Ness St., NW", "USE_TYPE": "RECREATION CENTER", "WARD_ID": "3", "SCHOOL_SIT": "no", "POOL": "none", "POOL_NAME": "none", "CHILD_CARE": "", "SENIOR_SER": "", "WEB_URL": "http:\/\/app.dpr.dc.gov\/dprmap\/details.asp?cid=7", "PHONE": "(202) 282-2198", "STATUS": "Open" }, "geometry": { "type": "Point", "coordinates": [ -77.088285, 38.942645 ] } }
,
{ "type": "Feature", "id": 105, "properties": { "NAME": "Guy Mason Recreation Center", "ADDRESS": "3600 Calvert St., NW", "USE_TYPE": "RECREATION CENTER", "WARD_ID": "3", "SCHOOL_SIT": "no", "POOL": "none", "POOL_NAME": "none", "CHILD_CARE": "", "SENIOR_SER": "", "WEB_URL": "http:\/\/app.dpr.dc.gov\/dprmap\/details.asp?cid=8", "PHONE": "(202) 282-2180", "STATUS": "Open" }, "geometry": { "type": "Point", "coordinates": [ -77.071198, 38.922150 ] } }
,
{ "type": "Feature", "id": 106, "properties": { "NAME": "Lafayette Recreation Center", "ADDRESS": "5900 33rd St., NW", "USE_TYPE": "RECREATION CENTER", "WARD_ID": "4", "SCHOOL_SIT": "no", "POOL": "none", "POOL_NAME": "none", "CHILD_CARE": "", "SENIOR_SER": "", "WEB_URL": "", "PHONE": "(202) 282-2206", "STATUS": "Open" }, "geometry": { "type": "Point", "coordinates": [ -77.067044, 38.967746 ] } }

]
}
